[
    {
        "city": "stockholm",
        "latitude": 59.3293,
        "longitude": 18.0686,
        "price_area": "SE3"
    },
    {
        "city": "uppsala",
        "latitude": 59.8586,
        "longitude": 17.6389,
        "price_area": "SE3"
    },
    {
        "city": "vasteras",
        "latitude": 59.6099,
        "longitude": 16.5448,
        "price_area": "SE3"
    },
    {
        "city": "orebro",
        "latitude": 59.2741,
        "longitude": 15.2066,
        "price_area": "SE3"
    },
    {
        "city": "karlstad",
        "latitude": 59.3793,
        "longitude": 13.5036,
        "price_area": "SE3"
    },
    {
        "city": "sundsvall",
        "latitude": 62.3908,
        "longitude": 17.3069,
        "price_area": "SE2"
    },
    {
        "city": "malmo",
        "latitude": 55.6049,
        "longitude": 13.0038,
        "price_area": "SE4"
    }
]
